[{"name":"C: Venice - Howland Canal","latitude":"33.984185","longitude":"-118.465211","link":"https://farm9.staticflickr.com/8519/8460411536_d3ae65dab6.jpg","city":"Los Angeles","country":"United States"},{"name":"C: Pershing Square-Downtown L.A.","latitude":"34.048534","longitude":"-118.252995","link":"https://farm5.staticflickr.com/4671/39213306755_b8b73ec30d.jpg","city":"Los Angeles","country":"United States"},{"name":"C: 1975 Suzuki RN 370","latitude":"33.987032","longitude":"-118.466219","link":"https://farm8.staticflickr.com/7401/9910441655_f6bbd51474.jpg","city":"Los Angeles","country":"United States"},{"name":"C: MircK - Mix Board","latitude":"34.055632","longitude":"-118.249862","link":"https://farm6.staticflickr.com/5821/21932140934_68eaf4ee35.jpg","city":"Los Angeles","country":"United States"},{"name":"C: Ducati 748","latitude":"33.987032","longitude":"-118.466219","link":"https://farm4.staticflickr.com/3771/9831288496_dcd69d5dfa.jpg","city":"Los Angeles","country":"United States"},{"name":"C: Pat Ngoho - Grabbing some Air","latitude":"33.987210","longitude":"-118.475532","link":"https://farm9.staticflickr.com/8354/8379750134_d5295d78b6.jpg","city":"Los Angeles","country":"United States"},{"name":"C: Los Angeles,Contemporary Culture,The Broad.","latitude":"34.054828","longitude":"-118.250870","link":"https://farm5.staticflickr.com/4700/25220880927_2f88749234.jpg","city":"Los Angeles","country":"United States"},{"name":"C: Room service rules.","latitude":"34.145936","longitude":"-118.412156","link":"https://farm2.staticflickr.com/1610/25698642353_c244672ea2.jpg","city":"Los Angeles","country":"United States"}]